[
  {
    "lat": 35.6595704,
    "lng": 139.6988292,
    "shop_name": "ChaTime 原宿竹下通り店",
    "address": "東京都渋谷区神宮前1-7-1 CUTECUBE HARAJUKU 1F"
  },
  {
    "lat": 35.6606773,
    "lng": 139.6983845,
    "shop_name": "ChaTime 渋谷センター街店",
    "address": "東京都渋谷区宇田川町29-4 渋谷Lu'86ビル 1F"
  },
  {
    "lat": 35.6595704,
    "lng": 139.6988292,
    "shop_name": "ChaTime SHIBUYA 109店",
    "address": "東京都渋谷区道玄坂2-29-1"
  },
  {
    "lat": 35.5434254,
    "lng": 139.4471052,
    "shop_name": "ChaTime AETA 町田店",
    "address": "東京都町田市原町田6-9-8 AETA Machida 105"
  },
  {
    "lat": 35.715614,
    "lng": 139.8594202,
    "shop_name": "ChaTime 新小岩店",
    "address": "東京都葛飾区新小岩1-41-8"
  },
  {
    "lat": 35.6970463,
    "lng": 139.7004277,
    "shop_name": "ChaTime 西武新宿駅前店",
    "address": "東京都新宿区歌舞伎町2-45-7 大喜ビル1階"
  },
  {
    "lat": 35.69824,
    "lng": 139.700814,
    "shop_name": "ChaTime 新大久保店",
    "address": "東京都新宿区百人町1丁目5-4"
  },
  {
    "lat": 35.7320254,
    "lng": 139.7137217,
    "shop_name": "ChaTime 池袋東口店",
    "address": "東京都豊島区東池袋１-40-3 池袋旗ﾋﾞﾙ 1階"
  },
  {
    "lat": 35.7138192,
    "lng": 139.417766,
    "shop_name": "ChaTime ららぽーと立川立飛店",
    "address": "東京都立川市泉町935-1 ららぽーと立川立飛1階"
  },
  {
    "lat": 35.6694608,
    "lng": 139.7649545,
    "shop_name": "ChaTime 銀座店",
    "address": "東京都中央区銀座6-12-17 錦光ビル1階"
  },
  {
    "lat": 35.9067442,
    "lng": 139.6262211,
    "shop_name": "ChaTime 大宮店",
    "address": "埼玉県さいたま市大宮区大門町1-24 大一ビル1F"
  },
  {
    "lat": 35.8588037,
    "lng": 139.5486025,
    "shop_name": "ChaTime ららぽーと富士見店",
    "address": "埼玉県富士見市山室1-1313 ららぽーと富士見1階"
  },
  {
    "lat": 35.4528013,
    "lng": 139.3929499,
    "shop_name": "ChaTime 海老名ビナウォーク店",
    "address": "神奈川県海老名市中央1-4-1 ビナウォーク5番街 1F"
  },
  {
    "lat": 35.5288784,
    "lng": 139.698612,
    "shop_name": "ChaTime 川崎チネチッタ通り店",
    "address": "神奈川県川崎市川崎区小川町1-7"
  },
  {
    "lat": 35.3219816,
    "lng": 139.5530156,
    "shop_name": "ChaTime 鎌倉小町通り店",
    "address": "神奈川県鎌倉市小町2-8-16 鶴ケ岡会館第2ビル 1階"
  },
  {
    "lat": 35.4571409,
    "lng": 139.6323713,
    "shop_name": "ChaTime MARK IS みなとみらい店",
    "address": "神奈川県横浜市西区みなとみらい3-5-1 MARK IS みなとみらい地下4階"
  },
  {
    "lat": 35.6909192,
    "lng": 140.0216807,
    "shop_name": "ChaTime 津田沼店",
    "address": "千葉県習志野市津田沼1-2-13 OKビル2階"
  },
  {
    "lat": 36.5603814,
    "lng": 139.8824033,
    "shop_name": "ChaTime 宇都宮店",
    "address": "栃木県宇都宮市江野町2-11 小倉ビル1F"
  },
  {
    "lat": 36.2914313,
    "lng": 139.6051303,
    "shop_name": "ChaTime 佐野プレミアム・アウトレット店",
    "address": "栃木県佐野市越名町2058 佐野プレミアムアウトレット フードコート"
  }
]
