[
  {
    "lat": 35.9072293,
    "lng": 139.6246956,
    "shop_name": "春水堂 ルミネ大宮店",
    "address": "埼玉県さいたま市大宮区錦町630 ルミネ大宮1 2F"
  },
  {
    "lat": 35.7071295,
    "lng": 139.7535347,
    "shop_name": "春水堂 東京ドームシティラクーア店",
    "address": "東京都文京区春日1-1-1 ラクーア 2F"
  },
  {
    "lat": 35.67432,
    "lng": 139.765308,
    "shop_name": "春水堂 銀座店",
    "address": "東京都中央区銀座5-8-1 GINZA PLACE B1F"
  },
  {
    "lat": 35.6248726,
    "lng": 139.7799373,
    "shop_name": "春水堂 ヴィーナスフォート店",
    "address": "東京都江東区青海1-3-15 パレットタウンウエストモール2F"
  },
  {
    "lat": 35.6912505,
    "lng": 139.7011419,
    "shop_name": "春水堂 ルミネエスト新宿店",
    "address": "東京都新宿区新宿3-38-1 ルミネエストB1F"
  },
  {
    "lat": 35.64967,
    "lng": 139.7045815,
    "shop_name": "春水堂 代官山店",
    "address": "東京都渋谷区 代官山町20-9 アクシス209代官山"
  },
  {
    "lat": 35.6638033,
    "lng": 139.7327058,
    "shop_name": "春水堂 六本木店",
    "address": "東京都港区 六本木1-4-5 アークヒルズサウスタワー 1F"
  },
  {
    "lat": 35.6988796,
    "lng": 139.743459,
    "shop_name": "春水堂 飯田橋サクラテラス店",
    "address": "東京都千代田区 富士見2-10-2 飯田橋グラン・ブルーム サクラテラス 2F"
  },
  {
    "lat": 35.6665659,
    "lng": 139.7091025,
    "shop_name": "春水堂 表参道店",
    "address": "東京都渋谷区 神宮前4-28-11 クレール・ミキ"
  },
  {
    "lat": 35.3799386,
    "lng": 139.6463351,
    "shop_name": "春水堂 三井アウトレットパーク横浜ベイサイド店（4/13 OPEN）",
    "address": "神奈川県横浜市金沢区白帆5-2 Cブロック1F"
  },
  {
    "lat": 35.4651726,
    "lng": 139.6236701,
    "shop_name": "春水堂 横浜ポルタ店",
    "address": "神奈川県横浜市西区高島2-16 横浜駅東口地下街ポルタB1F"
  },
  {
    "lat": 34.7040483,
    "lng": 135.4948827,
    "shop_name": "春水堂 グランフロント大阪店",
    "address": "大阪府大阪市北区大深町4-1 グランフロント大阪うめきた広場B1F"
  },
  {
    "lat": 34.7435814,
    "lng": 135.3607271,
    "shop_name": "春水堂 西宮ガーデンズ店",
    "address": "兵庫県西宮市高松町14-2 阪急西宮ガーデンズ 1F Gardens Kitchen"
  },
  {
    "lat": 34.3976328,
    "lng": 132.4768777,
    "shop_name": "春水堂 ekie広島店",
    "address": "広島県広島市南区松原町1-2 ekie広島1階 エキエキッチン"
  },
  {
    "lat": 33.589996,
    "lng": 130.4199878,
    "shop_name": "春水堂 アミュプラザ博多店",
    "address": "福岡県福岡市博多区博多駅中央街1-1 アミュプラザ博多 地下1F"
  },
  {
    "lat": 33.5880611,
    "lng": 130.4011381,
    "shop_name": "春水堂 天神地下街店",
    "address": "福岡県福岡市中央区天神2丁目地下1号122 (天神地下街西6番街)"
  }
]
